{
"type": "FeatureCollection",
"features": [
{
  "type": "Feature",
  "id": "node/2893492870",
  "properties": {
    "access": "yes",
    "amenity": "charging_station",
    "authentication:none": "yes",
    "capacity": "1",
    "fee": "no",
    "motorcar": "yes",
    "name": "Ponto de Carga do Centro Ciência Viva da Floresta",
    "network": "none",
    "note": "Ponto de carga gratuito equipado com uma ficha normal - tipo \"Schuko\".",
    "operator": "Centro Ciência Viva da Floresta",
    "phone": "+351274670220",
    "socket:schuko": "1",
    "socket:schuko:voltage": "230",
    "website": "http://www.ccvfloresta.com/o-centro/servicos/130-ponto-de-carregamento-para-veiculos-eletricos",
    "wheelchair": "yes",
    "id": "node/2893492870"
  },
  "geometry": {
    "type": "Point",
    "coordinates": [
      -7.8755008,
      39.7334231
    ]
  }
},
{
  "type": "Feature",
  "id": "node/3341738489",
  "properties": {
    "access": "customers",
    "amenity": "charging_station",
    "authentication:none": "yes",
    "capacity": "3",
    "fee": "no",
    "level": "-1",
    "motorcar": "yes",
    "name": "Parque Nascente",
    "network": "none",
    "operator": "Parque Nascente",
    "socket:cee_blue": "3",
    "socket:cee_blue:current": "16",
    "socket:cee_blue:output": "3.7kW",
    "socket:cee_blue:voltage": "230",
    "id": "node/3341738489"
  },
  "geometry": {
    "type": "Point",
    "coordinates": [
      -8.5668247,
      41.174083
    ]
  }
},
{
  "type": "Feature",
  "id": "node/6557043974",
  "properties": {
    "access": "customers",
    "amenity": "charging_station",
    "capacity": "1",
    "motorcar": "yes",
    "name": "Renault Ílhavo",
    "network": "Renault",
    "operator": "Renault",
    "id": "node/6557043974"
  },
  "geometry": {
    "type": "Point",
    "coordinates": [
      -8.6749881,
      40.6070944
    ]
  }
},
{
  "type": "Feature",
  "id": "node/8226584568",
  "properties": {
    "access": "private",
    "amenity": "charging_station",
    "bicycle": "no",
    "motorcar": "no",
    "name": "Golfcarts",
    "network": "none",
    "operator": "Hotel Pestana Blue Alvor",
    "id": "node/8226584568"
  },
  "geometry": {
    "type": "Point",
    "coordinates": [
      -8.5778575,
      37.1249797
    ]
  }
},
{
  "type": "Feature",
  "id": "node/8432045101",
  "properties": {
    "access": "customers",
    "addr:country": "PT",
    "amenity": "charging_station",
    "capacity": "1",
    "motorcar": "yes",
    "name": "Electrocostura",
    "network": "none",
    "operator": "Electrocostura",
    "socket:cee_red_16a": "1",
    "socket:cee_red_16a:output": "11kW",
    "id": "node/8432045101"
  },
  "geometry": {
    "type": "Point",
    "coordinates": [
      -8.48462,
      40.902628
    ]
  }
},
{
  "type": "Feature",
  "id": "node/8891759742",
  "properties": {
    "access": "private",
    "amenity": "charging_station",
    "bicycle": "yes",
    "capacity": "1",
    "image": "https://i.imgur.com/d96Z6wi.jpg",
    "motorcar": "yes",
    "name": "ahoxus (call for emergencies)",
    "no:network": "yes",
    "opening_hours": "24/7",
    "id": "node/8891759742"
  },
  "geometry": {
    "type": "Point",
    "coordinates": [
      -7.6742113,
      41.270683
    ]
  }
},
{
  "type": "Feature",
  "id": "node/9095146043",
  "properties": {
    "access": "private",
    "addr:country": "PT",
    "amenity": "charging_station",
    "capacity": "8",
    "motorcar": "yes",
    "name": "Entreposto Sonae",
    "network": "none",
    "operator": "Entreposto Sonae",
    "socket:schuko": "8",
    "socket:schuko:current": "16",
    "socket:schuko:output": "3.6kW",
    "socket:schuko:voltage": "230",
    "id": "node/9095146043"
  },
  "geometry": {
    "type": "Point",
    "coordinates": [
      -8.90105,
      39.053986
    ]
  }
},
{
  "type": "Feature",
  "id": "node/9180448193",
  "properties": {
    "access": "customers",
    "amenity": "charging_station",
    "authentication:none": "yes",
    "bicycle": "yes",
    "capacity": "3",
    "fee": "no",
    "motorcar": "yes",
    "name": "Quinta da Cumieira (para emergências)",
    "name:en": "Quinta da Cumieira (for emergencies)",
    "network": "none",
    "note": "Para emergências",
    "note:en": "For emergencies",
    "operator": "Quinta da Cumeira",
    "scooter": "yes",
    "socket:schuko": "2",
    "socket:schuko:current": "16",
    "socket:schuko:output": "3.7kW",
    "socket:schuko:voltage": "230",
    "id": "node/9180448193"
  },
  "geometry": {
    "type": "Point",
    "coordinates": [
      -7.7619626,
      41.2580237
    ]
  }
},
{
  "type": "Feature",
  "id": "node/9245406422",
  "properties": {
    "access": "customers",
    "amenity": "charging_station",
    "bicycle": "yes",
    "motorcar": "no",
    "vehicle": "yes",
    "id": "node/9245406422"
  },
  "geometry": {
    "type": "Point",
    "coordinates": [
      -7.8854948,
      41.1461106
    ]
  }
},
{
  "type": "Feature",
  "id": "node/9245406423",
  "properties": {
    "access": "customers",
    "amenity": "charging_station",
    "bicycle": "yes",
    "motorcar": "no",
    "network": "none",
    "operator": "Quinta de São Bernardo",
    "vehicle": "yes",
    "id": "node/9245406423"
  },
  "geometry": {
    "type": "Point",
    "coordinates": [
      -7.8855168,
      41.1460775
    ]
  }
},
{
  "type": "Feature",
  "id": "node/9733166820",
  "properties": {
    "access": "yes",
    "amenity": "charging_station",
    "bicycle": "yes",
    "motorcar": "no",
    "operator": "Biciway",
    "id": "node/9733166820"
  },
  "geometry": {
    "type": "Point",
    "coordinates": [
      -8.3176322,
      41.8212838
    ]
  }
},
{
  "type": "Feature",
  "id": "node/9937155495",
  "properties": {
    "amenity": "charging_station",
    "id": "node/9937155495"
  },
  "geometry": {
    "type": "Point",
    "coordinates": [
      -8.6788248,
      41.1705636
    ]
  }
},
{
  "type": "Feature",
  "id": "node/9937155496",
  "properties": {
    "amenity": "charging_station",
    "id": "node/9937155496"
  },
  "geometry": {
    "type": "Point",
    "coordinates": [
      -8.6789218,
      41.1705161
    ]
  }
},
{
  "type": "Feature",
  "id": "node/9981330418",
  "properties": {
    "amenity": "charging_station",
    "id": "node/9981330418"
  },
  "geometry": {
    "type": "Point",
    "coordinates": [
      -16.3339184,
      33.0589062
    ]
  }
},
{
  "type": "Feature",
  "id": "node/9981341917",
  "properties": {
    "amenity": "charging_station",
    "id": "node/9981341917"
  },
  "geometry": {
    "type": "Point",
    "coordinates": [
      -16.3338345,
      33.0589305
    ]
  }
},
{
  "type": "Feature",
  "id": "node/9981999717",
  "properties": {
    "amenity": "charging_station",
    "capacity": "2",
    "id": "node/9981999717"
  },
  "geometry": {
    "type": "Point",
    "coordinates": [
      -16.3388179,
      33.0573142
    ]
  }
},
{
  "type": "Feature",
  "id": "node/9983423117",
  "properties": {
    "amenity": "charging_station",
    "id": "node/9983423117"
  },
  "geometry": {
    "type": "Point",
    "coordinates": [
      -16.3791801,
      33.0250497
    ]
  }
},
{
  "type": "Feature",
  "id": "node/9986732617",
  "properties": {
    "amenity": "charging_station",
    "id": "node/9986732617"
  },
  "geometry": {
    "type": "Point",
    "coordinates": [
      -16.341642,
      33.0541706
    ]
  }
},
{
  "type": "Feature",
  "id": "node/10157924953",
  "properties": {
    "access": "yes",
    "addr:country": "PT",
    "amenity": "charging_station",
    "authentication:membership_card": "yes",
    "authentication:none": "no",
    "capacity": "4",
    "fee": "yes",
    "maxstay": "unlimited",
    "motorcar": "yes",
    "name": "SXL-00025/26",
    "network": "Mobi.E",
    "opening_hours": "24/7",
    "operator": "Galp Power",
    "parking:fee": "no",
    "payment:app": "yes",
    "payment:cards": "no",
    "payment:cash": "no",
    "payment:membership_card": "yes",
    "ref": "SXL-00025;SXL-00026",
    "socket:type2:current": "32",
    "socket:type2:output": "22kW",
    "socket:type2:voltage": "400",
    "website": "https://www.mobie.pt/",
    "id": "node/10157924953"
  },
  "geometry": {
    "type": "Point",
    "coordinates": [
      -9.088703,
      38.6199354
    ]
  }
},
{
  "type": "Feature",
  "id": "node/10572377709",
  "properties": {
    "amenity": "charging_station",
    "id": "node/10572377709"
  },
  "geometry": {
    "type": "Point",
    "coordinates": [
      -16.9166412,
      32.6425469
    ]
  }
},
{
  "type": "Feature",
  "id": "node/10572615370",
  "properties": {
    "amenity": "charging_station",
    "authentication:membership_card": "yes",
    "fee": "yes",
    "opening_hours": "24/7",
    "id": "node/10572615370"
  },
  "geometry": {
    "type": "Point",
    "coordinates": [
      -7.5019471,
      37.1806227
    ]
  }
},
{
  "type": "Feature",
  "id": "node/10606632316",
  "properties": {
    "amenity": "charging_station",
    "id": "node/10606632316"
  },
  "geometry": {
    "type": "Point",
    "coordinates": [
      -7.9085553,
      40.6592623
    ]
  }
},
{
  "type": "Feature",
  "id": "node/10606632317",
  "properties": {
    "amenity": "charging_station",
    "id": "node/10606632317"
  },
  "geometry": {
    "type": "Point",
    "coordinates": [
      -7.9085739,
      40.6592721
    ]
  }
},
{
  "type": "Feature",
  "id": "node/10606632318",
  "properties": {
    "amenity": "charging_station",
    "id": "node/10606632318"
  },
  "geometry": {
    "type": "Point",
    "coordinates": [
      -7.9085908,
      40.6592814
    ]
  }
},
{
  "type": "Feature",
  "id": "node/10606632319",
  "properties": {
    "amenity": "charging_station",
    "id": "node/10606632319"
  },
  "geometry": {
    "type": "Point",
    "coordinates": [
      -7.9086077,
      40.6592894
    ]
  }
},
{
  "type": "Feature",
  "id": "node/10658770684",
  "properties": {
    "access": "customers",
    "amenity": "charging_station",
    "brand": "Inovolt",
    "id": "node/10658770684"
  },
  "geometry": {
    "type": "Point",
    "coordinates": [
      -7.9763568,
      40.4737448
    ]
  }
}
]
}
