{
"type": "FeatureCollection",
"features": [
{
  "type": "Feature",
  "id": "node/2893492870",
  "properties": {
    "access": "yes",
    "amenity": "charging_station",
    "authentication:none": "yes",
    "capacity": "1",
    "fee": "no",
    "motorcar": "yes",
    "name": "Ponto de Carga do Centro Ciência Viva da Floresta",
    "network": "none",
    "note": "Ponto de carga gratuito equipado com uma ficha normal - tipo \"Schuko\".",
    "operator": "Centro Ciência Viva da Floresta",
    "phone": "+351274670220",
    "socket:schuko": "1",
    "socket:schuko:voltage": "230",
    "website": "http://www.ccvfloresta.com/o-centro/servicos/130-ponto-de-carregamento-para-veiculos-eletricos",
    "wheelchair": "yes",
    "id": "node/2893492870"
  },
  "geometry": {
    "type": "Point",
    "coordinates": [
      -7.8755008,
      39.7334231
    ]
  }
},
{
  "type": "Feature",
  "id": "node/3341738489",
  "properties": {
    "access": "customers",
    "amenity": "charging_station",
    "authentication:none": "yes",
    "capacity": "3",
    "fee": "no",
    "level": "-1",
    "motorcar": "yes",
    "name": "Parque Nascente",
    "network": "none",
    "operator": "Parque Nascente",
    "socket:cee_blue": "3",
    "socket:cee_blue:current": "16",
    "socket:cee_blue:output": "3.7kW",
    "socket:cee_blue:voltage": "230",
    "id": "node/3341738489"
  },
  "geometry": {
    "type": "Point",
    "coordinates": [
      -8.5668247,
      41.174083
    ]
  }
},
{
  "type": "Feature",
  "id": "node/6557043974",
  "properties": {
    "access": "customers",
    "amenity": "charging_station",
    "motorcar": "yes",
    "name": "Renault Ílhavo",
    "network": "Renault",
    "operator": "Renault",
    "id": "node/6557043974"
  },
  "geometry": {
    "type": "Point",
    "coordinates": [
      -8.6749881,
      40.6070944
    ]
  }
},
{
  "type": "Feature",
  "id": "node/6635524350",
  "properties": {
    "access": "customers",
    "amenity": "charging_station",
    "fee": "yes",
    "motorcar": "yes",
    "name": "Pingo Doce",
    "network": "none",
    "operator": "Pingo Doce",
    "id": "node/6635524350"
  },
  "geometry": {
    "type": "Point",
    "coordinates": [
      -7.9139509,
      40.6529497
    ]
  }
},
{
  "type": "Feature",
  "id": "node/8085492052",
  "properties": {
    "access": "yes",
    "addr:country": "PT",
    "addr:street": "Mar Shopping Algarve, Avenida Algarve",
    "amenity": "charging_station",
    "authentication:none": "yes",
    "capacity": "8",
    "fee": "no",
    "maxstay": "unlimited",
    "motorcar": "yes",
    "name": "Mar Shopping Algarve",
    "network": "none",
    "opening_hours": "Mo-Su 10:00-23:00",
    "operator": "Mar Shopping",
    "parking:fee": "no",
    "socket:cee_red_16a": "8",
    "socket:cee_red_16a:output": "11kW",
    "socket:schuko": "8",
    "socket:schuko:output": "2kW",
    "socket:schuko:voltage": "230 V",
    "id": "node/8085492052"
  },
  "geometry": {
    "type": "Point",
    "coordinates": [
      -7.9977143,
      37.097959
    ]
  }
},
{
  "type": "Feature",
  "id": "node/8226584568",
  "properties": {
    "access": "private",
    "amenity": "charging_station",
    "bicycle": "no",
    "motorcar": "no",
    "name": "Golfcarts",
    "network": "none",
    "operator": "Hotel Pestana Blue Alvor",
    "id": "node/8226584568"
  },
  "geometry": {
    "type": "Point",
    "coordinates": [
      -8.5778575,
      37.1249797
    ]
  }
},
{
  "type": "Feature",
  "id": "node/8432045101",
  "properties": {
    "access": "customers",
    "addr:country": "PT",
    "amenity": "charging_station",
    "capacity": "1",
    "motorcar": "yes",
    "name": "Electrocostura",
    "network": "none",
    "operator": "Electrocostura",
    "socket:cee_red_16a": "1",
    "socket:cee_red_16a:output": "11kW",
    "id": "node/8432045101"
  },
  "geometry": {
    "type": "Point",
    "coordinates": [
      -8.48462,
      40.902628
    ]
  }
},
{
  "type": "Feature",
  "id": "node/8891759742",
  "properties": {
    "access": "private",
    "amenity": "charging_station",
    "bicycle": "yes",
    "capacity": "1",
    "image": "https://i.imgur.com/d96Z6wi.jpg",
    "motorcar": "yes",
    "name": "ahoxus (call for emergencies)",
    "no:network": "yes",
    "opening_hours": "24/7",
    "id": "node/8891759742"
  },
  "geometry": {
    "type": "Point",
    "coordinates": [
      -7.6742113,
      41.270683
    ]
  }
},
{
  "type": "Feature",
  "id": "node/9095146043",
  "properties": {
    "access": "private",
    "addr:country": "PT",
    "amenity": "charging_station",
    "capacity": "8",
    "motorcar": "yes",
    "name": "Entreposto Sonae",
    "network": "none",
    "operator": "Entreposto Sonae",
    "socket:schuko": "8",
    "socket:schuko:current": "16",
    "socket:schuko:output": "3.6kW",
    "socket:schuko:voltage": "230",
    "id": "node/9095146043"
  },
  "geometry": {
    "type": "Point",
    "coordinates": [
      -8.90105,
      39.053986
    ]
  }
},
{
  "type": "Feature",
  "id": "node/9180448193",
  "properties": {
    "access": "customers",
    "amenity": "charging_station",
    "authentication:none": "yes",
    "bicycle": "yes",
    "capacity": "3",
    "fee": "no",
    "motorcar": "yes",
    "name": "Quinta da Cumieira (para emergências)",
    "name:en": "Quinta da Cumieira (for emergencies)",
    "network": "none",
    "note": "Para emergências",
    "note:en": "For emergencies",
    "operator": "Quinta da Cumeira",
    "scooter": "yes",
    "socket:schuko": "2",
    "socket:schuko:current": "16",
    "socket:schuko:output": "3.7kW",
    "socket:schuko:voltage": "230",
    "id": "node/9180448193"
  },
  "geometry": {
    "type": "Point",
    "coordinates": [
      -7.7619626,
      41.2580237
    ]
  }
},
{
  "type": "Feature",
  "id": "node/9245406422",
  "properties": {
    "access": "customers",
    "amenity": "charging_station",
    "bicycle": "yes",
    "motorcar": "no",
    "vehicle": "yes",
    "id": "node/9245406422"
  },
  "geometry": {
    "type": "Point",
    "coordinates": [
      -7.8854948,
      41.1461106
    ]
  }
},
{
  "type": "Feature",
  "id": "node/9245406423",
  "properties": {
    "access": "customers",
    "amenity": "charging_station",
    "bicycle": "yes",
    "motorcar": "no",
    "network": "none",
    "operator": "Quinta de São Bernardo",
    "vehicle": "yes",
    "id": "node/9245406423"
  },
  "geometry": {
    "type": "Point",
    "coordinates": [
      -7.8855168,
      41.1460775
    ]
  }
},
{
  "type": "Feature",
  "id": "node/9733166820",
  "properties": {
    "access": "yes",
    "amenity": "charging_station",
    "bicycle": "yes",
    "motorcar": "no",
    "operator": "Biciway",
    "id": "node/9733166820"
  },
  "geometry": {
    "type": "Point",
    "coordinates": [
      -8.3176322,
      41.8212838
    ]
  }
},
{
  "type": "Feature",
  "id": "node/9820952892",
  "properties": {
    "access": "yes",
    "amenity": "charging_station",
    "fee": "yes",
    "id": "node/9820952892"
  },
  "geometry": {
    "type": "Point",
    "coordinates": [
      -9.2129726,
      38.6924415
    ]
  }
},
{
  "type": "Feature",
  "id": "node/9828511813",
  "properties": {
    "amenity": "charging_station",
    "id": "node/9828511813"
  },
  "geometry": {
    "type": "Point",
    "coordinates": [
      -7.7409878,
      41.060918
    ]
  }
},
{
  "type": "Feature",
  "id": "node/9841322644",
  "properties": {
    "amenity": "charging_station",
    "description": "1x PCR (Chademo+CCS) + 4x PCN 22kw",
    "name": "Continente Plug&Charge",
    "id": "node/9841322644"
  },
  "geometry": {
    "type": "Point",
    "coordinates": [
      -8.8153098,
      41.7044038
    ]
  }
}
]
}
